City,Lat,Lng,Max Temp,Humidity,Cloudiness,Wind Speed,Country,Date
kralendijk,12.15,-68.2667,85.98,70.0,40.0,19.57,BQ,1628174391.0
barrow,71.2906,-156.7887,46.42,95.0,90.0,12.66,US,1628174622.0
ushuaia,-54.8,-68.3,49.62,61.0,0.0,4.61,AR,1628174416.0
kodiak,57.79,-152.4072,53.11,94.0,75.0,0.0,US,1628174623.0
flinders,-34.5833,150.8552,51.8,74.0,1.0,8.61,AU,1628174623.0
san cristobal,7.7669,-72.225,78.98,73.0,72.0,7.25,VE,1628174623.0
provideniya,64.3833,-173.3,47.84,89.0,96.0,7.78,RU,1628174624.0
bonavista,48.6499,-53.1147,75.2,62.0,57.0,5.14,CA,1628174394.0
katsuura,35.1333,140.3,78.91,86.0,45.0,6.13,JP,1628174394.0
rikitea,-23.1203,-134.9692,73.45,74.0,49.0,17.94,PF,1628174625.0
georgetown,5.4112,100.3354,83.89,81.0,20.0,0.0,MY,1628174368.0
cherskiy,68.75,161.3,41.09,91.0,73.0,11.03,RU,1628174626.0
bulgan,48.8125,103.5347,61.79,71.0,3.0,3.27,MN,1628174396.0
hermanus,-34.4187,19.2345,68.9,80.0,47.0,14.5,ZA,1628174626.0
boda,4.3189,17.4695,83.16,66.0,31.0,2.33,CF,1628174627.0
upernavik,72.7868,-56.1549,45.88,65.0,11.0,1.41,GL,1628174627.0
belaya gora,68.5333,146.4167,39.9,91.0,100.0,3.22,RU,1628174628.0
airai,-8.9266,125.4092,55.9,90.0,86.0,3.67,TL,1628174628.0
akdepe,42.0551,59.3788,100.49,17.0,62.0,19.22,TM,1628174399.0
saint-francois,46.4154,3.9054,75.18,54.0,75.0,6.91,FR,1628174629.0
yeppoon,-23.1333,150.7333,49.78,61.0,22.0,8.63,AU,1628174629.0
sioux lookout,50.1001,-91.917,70.18,73.0,90.0,6.91,CA,1628174629.0
bredasdorp,-34.5322,20.0403,63.72,59.0,95.0,6.91,ZA,1628174630.0
albany,42.6001,-73.9662,74.62,75.0,15.0,4.54,US,1628174630.0
ojinaga,29.5667,-104.4167,83.41,54.0,1.0,8.05,MX,1628174630.0
taywarah,33.35,64.4167,65.28,23.0,5.0,17.07,AF,1628174631.0
sao paulo de olivenca,-3.3783,-68.8725,87.08,45.0,62.0,0.78,BR,1628174404.0
bengkulu,-3.8004,102.2655,77.05,86.0,87.0,3.51,ID,1628174632.0
castro,-24.7911,-50.0119,61.81,62.0,100.0,10.18,BR,1628174633.0
port elizabeth,-33.918,25.5701,65.1,82.0,40.0,19.57,ZA,1628174552.0
port alfred,-33.5906,26.891,64.42,93.0,81.0,7.18,ZA,1628174633.0
muros,42.7762,-9.0603,70.09,81.0,24.0,8.55,ES,1628174406.0
sao filipe,14.8961,-24.4956,78.91,86.0,99.0,6.89,CV,1628174634.0
busselton,-33.65,115.3333,47.08,81.0,0.0,6.44,AU,1628174634.0
umm lajj,25.0213,37.2685,94.64,48.0,0.0,5.55,SA,1628174635.0
komsomolskiy,40.4272,71.7189,92.12,18.0,95.0,6.91,UZ,1628174635.0
yellowknife,62.456,-114.3525,56.32,76.0,75.0,2.3,CA,1628174636.0
naron,43.5167,-8.1528,71.6,72.0,63.0,14.45,ES,1628174636.0
caluquembe,-13.7833,14.6833,80.13,14.0,0.0,3.87,AO,1628174408.0
leningradskiy,69.3833,178.4167,37.74,99.0,86.0,2.28,RU,1628174637.0
arraial do cabo,-22.9661,-42.0278,69.76,83.0,75.0,5.75,BR,1628174409.0
vaini,-21.2,-175.2,60.96,94.0,75.0,2.3,TO,1628174409.0
lompoc,34.6391,-120.4579,60.48,97.0,90.0,0.0,US,1628174638.0
ahipara,-35.1667,173.1667,55.47,85.0,45.0,15.39,NZ,1628174638.0
hobart,-42.8794,147.3294,53.46,64.0,98.0,3.0,AU,1628174411.0
kruisfontein,-34.0033,24.7314,61.88,94.0,98.0,8.03,ZA,1628174639.0
ilulissat,69.2167,-51.1,48.22,71.0,40.0,5.75,GL,1628174639.0
bethel,41.3712,-73.414,71.02,83.0,90.0,5.75,US,1628174412.0
mogadishu,2.0371,45.3438,78.67,65.0,40.0,14.97,SO,1628174623.0
dikson,73.5069,80.5464,52.27,85.0,2.0,4.47,RU,1628174640.0
samarai,-10.6167,150.6667,77.61,71.0,97.0,15.05,PG,1628174413.0
puerto ayora,-0.7393,-90.3518,73.36,86.0,71.0,5.99,EC,1628174641.0
new norfolk,-42.7826,147.0587,53.1,65.0,100.0,8.99,AU,1628174641.0
cobija,-11.0267,-68.7692,77.18,57.0,2.0,20.71,BO,1628174642.0
victoria,22.2855,114.1577,84.18,95.0,100.0,1.01,HK,1628174634.0
manga,11.6636,-1.0731,88.3,54.0,98.0,8.59,BF,1628174643.0
tasiilaq,65.6145,-37.6368,51.96,75.0,28.0,1.77,GL,1628174643.0
norman wells,65.282,-126.8329,55.44,82.0,40.0,6.91,CA,1628174644.0
ravar,31.2656,56.8055,91.51,12.0,3.0,7.92,IR,1628174417.0
petropavlovsk-kamchatskiy,53.0452,158.6483,50.59,71.0,40.0,2.24,RU,1628174645.0
elliot lake,46.3834,-82.6331,69.89,61.0,80.0,6.91,CA,1628174645.0
guarapari,-20.6667,-40.4975,67.89,73.0,87.0,9.66,BR,1628174646.0
punta arenas,-53.15,-70.9167,50.02,65.0,0.0,14.97,CL,1628174427.0
jamestown,42.097,-79.2353,74.34,73.0,75.0,8.05,US,1628174468.0
khatanga,71.9667,102.5,63.21,41.0,38.0,10.92,RU,1628174419.0
seymchan,62.8833,152.4333,39.25,96.0,100.0,9.93,RU,1628174647.0
huarmey,-10.0681,-78.1522,67.8,77.0,52.0,8.39,PE,1628174647.0
ponta do sol,32.6667,-17.1,79.43,79.0,7.0,1.19,PT,1628174648.0
saint anthony,45.0205,-93.218,72.84,80.0,1.0,1.01,US,1628174421.0
atuona,-9.8,-139.0333,77.25,75.0,17.0,12.84,PF,1628174649.0
lorengau,-2.0226,147.2712,79.79,82.0,26.0,5.12,PG,1628174421.0
muscat,23.6139,58.5922,96.82,49.0,9.0,9.31,OM,1628174373.0
mataura,-46.1927,168.8643,33.48,97.0,80.0,1.54,NZ,1628174649.0
east london,-33.0153,27.9116,68.94,73.0,0.0,10.36,ZA,1628174356.0
miri,4.4148,114.0089,78.94,94.0,20.0,3.44,MY,1628174650.0
oranjemund,-28.55,16.4333,60.44,65.0,6.0,11.56,NA,1628174424.0
santa rosa,14.3122,121.1114,83.1,81.0,54.0,9.24,PH,1628174424.0
bluff,-46.6,168.3333,33.8,83.0,66.0,4.27,NZ,1628174651.0
la cruz,23.9167,-106.9,82.47,84.0,43.0,3.0,MX,1628174651.0
hasaki,35.7333,140.8333,75.6,88.0,66.0,3.6,JP,1628174652.0
arman,59.7,150.1667,46.63,58.0,94.0,10.76,RU,1628174652.0
hithadhoo,-0.6,73.0833,81.86,76.0,100.0,7.29,MV,1628174653.0
lebu,-37.6167,-73.65,55.18,72.0,93.0,13.67,CL,1628174653.0
nagato,34.3833,131.2,82.31,84.0,0.0,4.83,JP,1628174653.0
chicama,-7.8447,-79.1469,63.14,72.0,56.0,5.32,PE,1628174428.0
kisangani,0.5167,25.2,93.63,34.0,41.0,1.88,CD,1628174654.0
kapaa,22.0752,-159.319,79.12,78.0,20.0,1.99,US,1628174655.0
bitlis,38.5,42.25,82.36,29.0,44.0,11.48,TR,1628174655.0
byron bay,-28.65,153.6167,55.87,72.0,3.0,5.95,AU,1628174656.0
lakselv,70.0513,24.9718,64.22,48.0,75.0,4.61,NO,1628174430.0
ninghai,29.2892,121.4247,82.08,94.0,49.0,2.71,CN,1628174656.0
masterton,-40.9597,175.6575,54.77,95.0,100.0,3.76,NZ,1628174656.0
ribeira grande,38.5167,-28.7,79.2,73.0,75.0,14.97,PT,1628174431.0
merauke,-8.4667,140.3333,73.65,85.0,70.0,12.84,ID,1628174431.0
lavrentiya,65.5833,-171.0,51.76,90.0,100.0,6.35,RU,1628174657.0
malanje,-9.5402,16.341,90.12,11.0,0.0,2.35,AO,1628174433.0
plerin,48.5425,-2.7798,70.2,73.0,75.0,11.01,FR,1628174658.0
qaanaaq,77.484,-69.3632,45.48,60.0,18.0,3.6,GL,1628174434.0
montego bay,18.4712,-77.9188,87.6,55.0,20.0,14.97,JM,1628174434.0
avarua,-21.2078,-159.775,68.05,94.0,90.0,1.14,CK,1628174659.0
sur,22.5667,59.5289,94.69,51.0,85.0,1.59,OM,1628174659.0
souillac,-20.5167,57.5167,70.36,68.0,40.0,11.5,MU,1628174436.0
naryan-mar,67.6713,53.087,58.14,62.0,100.0,9.28,RU,1628174660.0
faanui,-16.4833,-151.75,78.76,71.0,26.0,9.31,PF,1628174660.0
husavik,66.0449,-17.3389,57.11,78.0,71.0,8.72,IS,1628174661.0
pisco,-13.7,-76.2167,64.45,72.0,75.0,9.22,PE,1628174661.0
ketchikan,55.3422,-131.6461,55.87,94.0,40.0,6.91,US,1628174438.0
aklavik,68.2191,-135.0107,56.12,76.0,40.0,3.44,CA,1628174662.0
hilo,19.7297,-155.09,72.81,81.0,90.0,6.91,US,1628174613.0
bathsheba,13.2167,-59.5167,86.61,74.0,40.0,16.11,BB,1628174663.0
rivadavia,-33.1905,-68.4608,55.87,34.0,0.0,6.35,AR,1628174442.0
mahebourg,-20.4081,57.7,70.25,68.0,40.0,11.5,MU,1628174440.0
amparafaravola,-17.5833,48.2167,58.39,83.0,28.0,6.13,MG,1628174664.0
shitanjing,39.2342,106.3439,74.03,21.0,97.0,4.38,CN,1628174665.0
marawi,7.9986,124.2928,69.66,82.0,95.0,4.45,PH,1628174665.0
nikolskoye,59.7035,30.7861,67.89,52.0,100.0,5.44,RU,1628174666.0
zhigansk,66.7697,123.3711,54.95,43.0,0.0,5.37,RU,1628174666.0
quatre cocos,-20.2078,57.7625,70.09,70.0,96.0,15.93,MU,1628174667.0
cape town,-33.9258,18.4232,66.11,67.0,20.0,3.0,ZA,1628174417.0
hovd,48.0056,91.6419,68.99,36.0,24.0,6.33,MN,1628174668.0
haines junction,60.7522,-137.5108,53.55,94.0,88.0,1.14,CA,1628174668.0
chokurdakh,70.6333,147.9167,36.3,86.0,100.0,10.67,RU,1628174669.0
san patricio,28.017,-97.5169,87.03,66.0,100.0,3.76,US,1628174669.0
camasca,14.0,-88.3833,76.86,82.0,100.0,2.93,HN,1628174446.0
ugoofaaru,5.6667,73.0,83.08,75.0,88.0,12.35,MV,1628174670.0
cayenne,4.9333,-52.3333,87.1,68.0,40.0,4.61,GF,1628174670.0
vila velha,-20.3297,-40.2925,67.95,88.0,90.0,4.61,BR,1628174447.0
kajaani,64.2273,27.7285,64.45,52.0,40.0,2.3,FI,1628174448.0
ormara,25.2088,64.6357,81.32,86.0,59.0,14.27,PK,1628174671.0
saldanha,-33.0117,17.9442,64.45,86.0,48.0,6.64,ZA,1628174671.0
luderitz,-26.6481,15.1594,62.78,62.0,74.0,4.18,NA,1628174672.0
grindavik,63.8424,-22.4338,59.56,82.0,75.0,3.44,IS,1628174672.0
yamada,39.4667,141.95,75.99,94.0,3.0,5.1,JP,1628174450.0
koslan,63.4564,48.8989,57.63,61.0,99.0,6.35,RU,1628174673.0
ibotirama,-12.1853,-43.2206,85.51,27.0,98.0,5.88,BR,1628174674.0
hadishahr,38.8431,45.6635,93.69,22.0,46.0,11.32,AZ,1628174674.0
tall kayf,37.0833,41.0667,106.99,11.0,40.0,11.5,TR,1628174675.0
talnakh,69.4865,88.3972,72.93,53.0,62.0,6.58,RU,1628174453.0
anori,-3.7728,-61.6442,92.68,43.0,21.0,2.53,BR,1628174453.0
vestmanna,62.1564,-7.1664,54.52,100.0,90.0,0.0,FO,1628174453.0
lowestoft,52.4752,1.7516,73.94,69.0,51.0,17.92,GB,1628174454.0
sibenik,43.7272,15.9058,85.66,43.0,54.0,5.99,HR,1628174677.0
thompson,55.7435,-97.8558,48.36,87.0,75.0,0.0,CA,1628174455.0
les cayes,18.2,-73.75,86.67,62.0,39.0,9.04,HT,1628174455.0
canon city,38.441,-105.2424,77.22,50.0,1.0,5.01,US,1628174677.0
carnarvon,-24.8667,113.6333,53.67,35.0,0.0,10.36,AU,1628174456.0
zwedru,6.0667,-8.1281,82.29,63.0,92.0,4.38,LR,1628174406.0
gaya,24.7833,85.0,80.51,83.0,75.0,0.0,IN,1628174679.0
cabo san lucas,22.8909,-109.9124,82.94,69.0,35.0,8.25,MX,1628174458.0
bilibino,68.0546,166.4372,43.16,90.0,80.0,7.87,RU,1628174458.0
saint-philippe,-21.3585,55.7679,67.59,77.0,70.0,15.55,RE,1628174680.0
nome,64.5011,-165.4064,55.47,88.0,90.0,8.05,US,1628174459.0
port lincoln,-34.7333,135.8667,55.18,75.0,100.0,8.75,AU,1628174459.0
tuatapere,-46.1333,167.6833,33.82,89.0,28.0,3.22,NZ,1628174681.0
coquimbo,-29.9533,-71.3436,55.13,82.0,90.0,11.5,CL,1628174681.0
alta floresta,-9.8756,-56.0861,91.22,29.0,0.0,6.91,BR,1628174682.0
xichang,27.8964,102.2634,70.39,76.0,100.0,3.27,CN,1628174682.0
pangnirtung,66.1451,-65.7125,44.6,87.0,75.0,13.8,CA,1628174682.0
vestmannaeyjar,63.4427,-20.2734,58.19,88.0,75.0,8.05,IS,1628174683.0
guerrero negro,27.9769,-114.0611,72.23,77.0,89.0,5.3,MX,1628174683.0
southbridge,42.0751,-72.0334,66.52,97.0,100.0,7.81,US,1628174684.0
potosi,-19.5836,-65.7531,40.06,70.0,1.0,4.61,BO,1628174684.0
pevek,69.7008,170.3133,37.4,98.0,45.0,4.85,RU,1628174685.0
butaritari,3.0707,172.7902,82.72,67.0,14.0,9.37,KI,1628174464.0
constitucion,-35.3333,-72.4167,54.64,79.0,100.0,7.38,CL,1628174686.0
maymyo,22.0333,96.4667,67.23,97.0,98.0,2.37,MM,1628174686.0
praya,14.9215,-23.5087,86.54,70.0,75.0,9.22,CV,1628174686.0
nianzishan,47.5167,122.8833,59.92,89.0,28.0,7.29,CN,1628174467.0
eufaula,31.8913,-85.1455,82.33,75.0,1.0,5.75,US,1628174596.0
chernyshevskiy,63.0128,112.4714,59.23,83.0,99.0,3.04,RU,1628174687.0
sines,37.9562,-8.8698,70.29,77.0,3.0,11.99,PT,1628174468.0
altay,47.8667,88.1167,64.15,61.0,100.0,1.43,CN,1628174688.0
longyearbyen,78.2186,15.6401,44.44,81.0,75.0,12.66,SJ,1628174469.0
saskylakh,71.9167,114.0833,55.18,60.0,17.0,8.93,RU,1628174688.0
davila,18.4726,120.5763,81.7,88.0,100.0,28.61,PH,1628174689.0
nha trang,12.25,109.1833,84.2,67.0,100.0,5.73,VN,1628174454.0
labuhan,-6.8844,112.2051,79.47,77.0,51.0,8.79,ID,1628174471.0
griffith,41.5284,-87.4237,79.9,58.0,1.0,1.99,US,1628174690.0
yangjiang,21.85,111.9667,79.07,92.0,100.0,4.76,CN,1628174690.0
mariental,-24.6333,17.9667,78.08,7.0,0.0,12.75,NA,1628174472.0
ust-ishim,57.6935,71.1665,68.29,65.0,100.0,3.65,RU,1628174691.0
roald,62.5833,6.1333,73.45,52.0,0.0,8.05,NO,1628174691.0
puerto princesa,9.7392,118.7353,79.9,86.0,8.0,4.45,PH,1628174692.0
sambava,-14.2667,50.1667,70.52,86.0,93.0,16.35,MG,1628174692.0
gaoual,11.75,-13.2,83.08,78.0,85.0,1.3,GN,1628174693.0
chenghai,23.4632,116.768,78.71,100.0,40.0,6.71,CN,1628174693.0
narsaq,60.9167,-46.05,55.62,69.0,99.0,5.3,GL,1628174693.0
samthar,25.85,78.9167,80.4,88.0,93.0,4.09,IN,1628174694.0
wanaka,-44.7,169.15,35.11,99.0,99.0,1.99,NZ,1628174695.0
havoysund,70.9963,24.6622,54.48,97.0,99.0,15.93,NO,1628174695.0
severomorsk,69.0689,33.4162,63.0,71.0,82.0,5.68,RU,1628174695.0
stettler,52.3168,-112.7186,62.35,100.0,6.0,8.05,CA,1628174696.0
kirov,58.5966,49.6601,66.7,57.0,18.0,5.32,RU,1628174697.0
craig,40.5153,-107.5464,61.79,76.0,1.0,4.61,US,1628174435.0
mandalgovi,45.7625,106.2708,68.0,39.0,7.0,4.27,MN,1628174697.0
plettenberg bay,-34.0527,23.3716,60.03,89.0,83.0,7.4,ZA,1628174697.0
shakawe,-18.3667,21.85,82.99,12.0,0.0,6.38,BW,1628174698.0
solnechnyy,50.7214,136.6319,57.04,98.0,99.0,2.44,RU,1628174698.0
banamba,13.55,-7.45,91.54,40.0,19.0,7.38,ML,1628174699.0
masvingo,-20.0637,30.8277,72.12,23.0,0.0,3.67,ZW,1628174699.0
bolanos de calatrava,38.9069,-3.6635,95.79,12.0,0.0,12.66,ES,1628174699.0
batagay-alyta,67.8006,130.4114,44.33,70.0,43.0,19.28,RU,1628174700.0
esperance,-33.8667,121.9,51.64,85.0,0.0,8.39,AU,1628174700.0
harper,4.375,-7.7169,79.47,69.0,81.0,10.85,LR,1628174700.0
kavieng,-2.5744,150.7967,81.03,77.0,88.0,3.8,PG,1628174701.0
tuktoyaktuk,69.4541,-133.0374,53.6,82.0,40.0,6.91,CA,1628174701.0
changji,44.0167,87.3167,83.19,34.0,0.0,4.47,CN,1628174702.0
deputatskiy,69.3,139.9,38.86,93.0,100.0,6.02,RU,1628174703.0
skeldon,5.8833,-57.1333,84.54,71.0,38.0,2.17,GY,1628174703.0
kalmunai,7.4167,81.8167,84.63,66.0,100.0,5.03,LK,1628174704.0
utica,43.1009,-75.2327,75.54,70.0,0.0,1.7,US,1628174704.0
banda aceh,5.5577,95.3222,81.37,76.0,99.0,13.67,ID,1628174705.0
praia da vitoria,38.7333,-27.0667,84.45,61.0,20.0,12.68,PT,1628174705.0
romny,50.751,33.4747,82.08,42.0,93.0,9.46,UA,1628174706.0
kolyvan,55.3053,82.7391,60.42,96.0,100.0,5.82,RU,1628174706.0
hami,42.8,93.45,90.73,14.0,26.0,8.52,CN,1628174707.0
sakakah,29.9697,40.2064,108.97,9.0,24.0,12.77,SA,1628174707.0
diu,20.7141,70.9822,81.66,84.0,100.0,16.11,IN,1628174707.0
poum,-20.2333,164.0167,70.66,70.0,69.0,19.73,NC,1628174708.0
pochutla,15.7432,-96.4661,83.82,79.0,90.0,3.58,MX,1628174708.0
kiama,-34.6833,150.8667,52.0,73.0,1.0,10.0,AU,1628174709.0
hurghada,27.2574,33.8129,95.04,59.0,2.0,8.05,EG,1628174638.0
moctezuma,29.8,-109.6667,79.72,65.0,0.0,3.85,MX,1628174710.0
xining,36.6167,101.7667,63.37,56.0,89.0,2.48,CN,1628174710.0
morehead,37.2711,-87.1764,80.31,69.0,1.0,3.0,US,1628174710.0
belyy yar,53.6039,91.3903,64.29,77.0,0.0,4.47,RU,1628174711.0
chiredzi,-21.05,31.6667,77.68,25.0,0.0,6.55,ZW,1628174711.0
saint-augustin,51.226,-58.6502,74.53,40.0,0.0,16.91,CA,1628174712.0
galle,6.0367,80.217,78.84,88.0,100.0,13.44,LK,1628174712.0
redmond,47.674,-122.1215,68.54,81.0,5.0,1.48,US,1628174605.0
correntina,-13.3433,-44.6367,81.63,28.0,100.0,10.67,BR,1628174713.0
svetlaya,46.5389,138.3297,65.44,98.0,98.0,10.94,RU,1628174713.0
chuy,-33.6971,-53.4616,61.54,80.0,65.0,11.63,UY,1628174714.0
birjand,32.8663,59.2211,88.27,10.0,20.0,16.11,IR,1628174714.0
pietarsaari,63.65,22.6833,71.47,55.0,47.0,6.6,FI,1628174715.0
darhan,49.4867,105.9228,66.6,72.0,8.0,3.42,MN,1628174715.0
manzhouli,49.6,117.4333,58.84,75.0,63.0,7.52,CN,1628174715.0
kazerun,29.6195,51.6541,96.57,19.0,51.0,10.27,IR,1628174716.0
cabedelo,-6.9811,-34.8339,77.67,78.0,79.0,17.94,BR,1628174716.0
mar del plata,-38.0023,-57.5575,55.09,93.0,90.0,7.0,AR,1628174479.0
sitka,57.0531,-135.33,57.09,82.0,75.0,6.91,US,1628174717.0
cidreira,-30.1811,-50.2056,63.01,84.0,100.0,13.4,BR,1628174717.0
concord,37.978,-122.0311,62.19,87.0,90.0,1.01,US,1628174501.0
egvekinot,66.3167,-179.1667,45.64,97.0,100.0,1.74,RU,1628174718.0
arawa,-6.2132,155.5367,75.7,92.0,100.0,5.17,PG,1628174718.0
oistins,13.0667,-59.5333,86.09,74.0,40.0,16.11,BB,1628174719.0
kota kinabalu,5.9749,116.0724,82.38,78.0,20.0,5.75,MY,1628174719.0
gorontalo,0.5412,123.0595,76.1,92.0,75.0,3.29,ID,1628174720.0
cascais,38.6979,-9.4215,85.86,61.0,20.0,10.0,PT,1628174654.0
srivardhan,18.0333,73.0167,80.62,86.0,97.0,15.28,IN,1628174720.0
presidente medici,-11.1753,-61.9014,92.89,22.0,2.0,4.72,BR,1628174721.0
ambon,-3.6954,128.1814,77.14,94.0,40.0,8.05,ID,1628174721.0
areia branca,-4.9561,-37.1369,95.2,43.0,14.0,7.76,BR,1628174722.0
la ronge,55.1001,-105.2842,61.05,77.0,75.0,3.44,CA,1628174722.0
lata,40.1629,-8.3327,88.03,52.0,3.0,12.44,PT,1628174722.0
aquiraz,-3.9014,-38.3911,89.69,49.0,6.0,12.95,BR,1628174723.0
angoche,-16.2325,39.9086,74.39,68.0,43.0,7.25,MZ,1628174723.0
dingle,10.9995,122.6711,77.7,89.0,70.0,6.62,PH,1628174724.0
dharchula,29.85,80.5333,73.26,94.0,42.0,2.39,IN,1628174724.0
awjilah,29.1081,21.2869,108.77,9.0,0.0,13.04,LY,1628174725.0
svetlyy,54.675,20.1347,73.45,51.0,64.0,14.67,RU,1628174725.0
abonnema,4.7084,6.7931,82.69,62.0,87.0,9.4,NG,1628174726.0
sobolevo,54.4299,31.8996,69.13,76.0,87.0,3.18,RU,1628174726.0
lokoja,7.8024,6.743,76.14,91.0,100.0,2.84,NG,1628174726.0
kahului,20.8947,-156.47,74.84,85.0,75.0,14.97,US,1628174727.0
shingu,33.7333,135.9833,78.91,83.0,43.0,7.45,JP,1628174727.0
grand gaube,-20.0064,57.6608,70.38,63.0,73.0,8.99,MU,1628174728.0
kysyl-syr,63.8986,122.7617,60.44,43.0,1.0,7.11,RU,1628174728.0
caranavi,-15.8167,-67.55,74.03,41.0,0.0,3.65,BO,1628174729.0
saint george,37.1041,-113.5841,95.54,27.0,1.0,3.44,US,1628174729.0
tabuk,17.4189,121.4443,78.12,75.0,100.0,1.1,PH,1628174729.0
yauya,-8.9833,-77.3,51.08,41.0,1.0,4.63,PE,1628174730.0
bridlington,54.0831,-0.1919,71.78,78.0,70.0,20.6,GB,1628174730.0
camacha,33.0833,-16.3333,75.96,78.0,75.0,17.27,PT,1628174731.0
ulaanbaatar,47.9077,106.8832,60.93,72.0,0.0,2.24,MN,1628174443.0
pathein,16.7833,94.7333,79.3,89.0,100.0,10.69,MM,1628174731.0
isangel,-19.55,169.2667,71.31,69.0,100.0,3.89,VU,1628174732.0
mount gambier,-37.8333,140.7667,49.91,100.0,90.0,8.05,AU,1628174732.0
orocue,4.7912,-71.3354,71.49,94.0,100.0,4.65,CO,1628174733.0
de aar,-30.6497,24.0123,67.71,23.0,0.0,15.52,ZA,1628174733.0
pokrovsk,48.282,37.1758,83.5,40.0,93.0,3.98,UA,1628174734.0
tilichiki,60.4667,166.1,45.16,96.0,100.0,5.61,RU,1628174734.0
senador guiomard,-10.1522,-67.7392,76.75,25.0,5.0,7.0,BR,1628174735.0
opuwo,-18.0607,13.84,83.12,13.0,42.0,3.78,NA,1628174735.0
yueyang,29.3333,113.0919,80.96,87.0,77.0,7.83,CN,1628174736.0
cap-aux-meules,47.3821,-61.8597,69.85,78.0,75.0,13.8,CA,1628174736.0
gambiran,-6.7988,111.4951,77.95,81.0,70.0,6.49,ID,1628174736.0
kodinsk,58.6881,99.1844,64.17,58.0,71.0,3.0,RU,1628174737.0
stary sacz,49.5636,20.635,67.89,91.0,100.0,3.78,PL,1628174737.0
wahiawa,21.5028,-158.0236,75.52,83.0,90.0,12.66,US,1628174738.0
tergnier,49.6561,3.3011,75.76,55.0,84.0,6.64,FR,1628174738.0
tecoanapa,16.5167,-98.75,80.19,80.0,99.0,3.42,MX,1628174738.0
yulara,-25.2406,130.9889,49.84,46.0,0.0,9.22,AU,1628174739.0
pimampiro,0.4,-77.9667,63.23,49.0,12.0,9.13,EC,1628174739.0
san roque,36.2107,-5.3842,90.41,45.0,0.0,13.8,ES,1628174740.0
clarence town,-32.5833,151.7833,53.94,72.0,0.0,7.78,AU,1628174740.0
vao,-22.6667,167.4833,68.11,63.0,96.0,19.6,NC,1628174741.0
vallenar,-28.5708,-70.7581,70.7,42.0,0.0,2.35,CL,1628174741.0
burnie,-41.0667,145.9167,49.91,79.0,100.0,15.28,AU,1628174742.0
amargosa,-13.0303,-39.6047,73.83,62.0,100.0,8.37,BR,1628174742.0
shishou,29.7226,112.419,80.56,85.0,43.0,9.44,CN,1628174742.0
kiruna,67.8557,20.2251,59.92,48.0,75.0,6.91,SE,1628174743.0
korem,12.5058,39.5228,63.68,70.0,100.0,5.28,ET,1628174743.0
russell,32.3502,-85.1999,81.79,76.0,75.0,6.91,US,1628174744.0
whitehorse,60.7161,-135.0538,59.77,93.0,75.0,5.01,CA,1628174683.0
leh,34.1667,77.5833,67.64,35.0,23.0,7.96,IN,1628174745.0
calvinia,-31.4707,19.776,60.6,25.0,0.0,7.74,ZA,1628174745.0
bratsk,56.1325,101.6142,61.29,65.0,85.0,1.3,RU,1628174746.0
bambanglipuro,-7.95,110.2833,76.08,90.0,28.0,7.96,ID,1628174747.0
ascension,30.2169,-90.9001,84.2,72.0,1.0,3.44,US,1628174747.0
biltine,14.5333,20.9167,93.43,38.0,33.0,9.1,TD,1628174748.0
pontianak,-0.0333,109.3333,76.98,94.0,40.0,0.0,ID,1628174748.0
mananjary,-21.2167,48.3333,66.88,78.0,34.0,6.08,MG,1628174749.0
singaraja,-8.112,115.0882,78.21,85.0,93.0,2.68,ID,1628174749.0
corrales,35.2378,-106.6067,79.97,59.0,1.0,1.99,US,1628174749.0
lannion,48.75,-3.4167,70.41,82.0,75.0,18.41,FR,1628174750.0
naze,28.3667,129.4833,77.31,95.0,100.0,32.37,JP,1628174750.0
chulman,56.8479,124.9104,56.55,95.0,100.0,2.8,RU,1628174751.0
prieska,-29.6641,22.7474,71.56,17.0,0.0,15.46,ZA,1628174751.0
kailua,21.4022,-157.7394,78.78,76.0,90.0,16.11,US,1628174752.0
jalu,29.0331,21.5482,108.95,9.0,0.0,13.67,LY,1628174752.0
banjar,-8.19,114.9675,80.46,91.0,94.0,2.8,ID,1628174752.0
songea,-10.6833,35.65,68.7,51.0,30.0,7.27,TZ,1628174753.0
salalah,17.0151,54.0924,80.69,89.0,90.0,9.22,OM,1628174604.0
zemio,5.0314,25.1361,84.18,65.0,50.0,4.5,CF,1628174753.0
korla,41.7597,86.1469,88.88,19.0,92.0,6.78,CN,1628174754.0
padang,-0.9492,100.3543,78.85,80.0,98.0,2.15,ID,1628174755.0
toamasina,-18.1667,49.3833,73.4,64.0,40.0,10.36,MG,1628174755.0
port hardy,50.6996,-127.4199,60.98,100.0,90.0,8.05,CA,1628174756.0
hereford,52.0568,-2.7148,64.81,69.0,100.0,13.6,GB,1628174756.0
iqaluit,63.7506,-68.5145,46.13,81.0,90.0,10.0,CA,1628174756.0
worland,44.0169,-107.9554,81.68,52.0,1.0,4.61,US,1628174757.0
puerto escondido,15.85,-97.0667,81.43,74.0,1.0,0.0,MX,1628174757.0
manggar,-2.8833,108.2667,80.67,78.0,100.0,10.2,ID,1628174758.0
uvinza,-5.1036,30.3911,86.54,31.0,60.0,4.38,TZ,1628174758.0
faya,18.3851,42.4509,69.91,50.0,84.0,8.12,SA,1628174758.0
geraldton,-28.7667,114.6,45.01,87.0,0.0,0.0,AU,1628174759.0
ahuimanu,21.4447,-157.8378,78.51,78.0,90.0,16.11,US,1628174759.0
tiksi,71.6872,128.8694,39.92,91.0,37.0,8.5,RU,1628174759.0
tautira,-17.7333,-149.15,75.22,81.0,38.0,11.56,PF,1628174760.0
farafangana,-22.8167,47.8333,67.1,77.0,28.0,9.53,MG,1628174760.0
codrington,-38.2667,141.9667,51.37,78.0,100.0,10.69,AU,1628174761.0
lysa hora,48.1706,31.1099,85.41,42.0,89.0,9.42,UA,1628174761.0
baghdad,33.3406,44.4009,114.71,13.0,0.0,11.5,IQ,1628174743.0
udachnyy,66.4167,112.4,64.76,50.0,0.0,7.9,RU,1628174762.0
karratha,-20.7377,116.8463,73.78,42.0,64.0,13.47,AU,1628174762.0
santa quiteria,-4.3319,-40.1567,93.88,27.0,6.0,8.46,BR,1628174763.0
oksfjord,70.2396,22.3479,60.87,79.0,99.0,1.83,NO,1628174763.0
aguilares,-27.4338,-65.6143,73.44,29.0,4.0,4.16,AR,1628174763.0
gushikawa,26.3544,127.8686,80.19,94.0,20.0,12.66,JP,1628174764.0
ajdabiya,30.7554,20.2263,95.85,29.0,0.0,18.19,LY,1628174765.0
wennigsen,52.274,9.5729,75.87,63.0,93.0,7.54,DE,1628174765.0
kondinskoye,59.6481,67.41,71.51,73.0,78.0,6.29,RU,1628174765.0
assesse,50.3693,5.022,74.23,67.0,77.0,5.86,BE,1628174766.0
tighina,46.8306,29.4711,91.29,42.0,60.0,14.88,MD,1628174766.0
kuna,43.4918,-116.4201,81.16,36.0,1.0,4.61,US,1628174767.0
burriana,39.889,-0.085,91.96,64.0,2.0,8.84,ES,1628174767.0
gilgit,35.9221,74.3087,75.85,64.0,80.0,9.22,PK,1628174768.0
dauis,9.6253,123.8658,83.3,79.0,93.0,5.01,PH,1628174768.0
salinopolis,-0.6136,-47.3561,86.77,59.0,82.0,8.63,BR,1628174769.0
beringovskiy,63.05,179.3167,45.5,93.0,40.0,11.54,RU,1628174769.0
hay river,60.8156,-115.7999,53.58,87.0,75.0,5.75,CA,1628174770.0
manono,-7.3,27.4167,95.22,18.0,0.0,1.12,CD,1628174770.0
dubbo,-32.25,148.6167,48.33,87.0,90.0,5.75,AU,1628174770.0
yuncheng,35.0231,110.9928,75.97,68.0,0.0,4.41,CN,1628174771.0
hambantota,6.1241,81.1185,82.74,78.0,20.0,13.8,LK,1628174771.0
bambous virieux,-20.3428,57.7575,70.21,68.0,40.0,11.5,MU,1628174772.0
atar,20.5169,-13.0499,108.5,12.0,0.0,12.64,MR,1628174772.0
san policarpo,12.1791,125.5072,80.73,75.0,99.0,5.3,PH,1628174773.0
white rock,49.0164,-122.8026,70.75,84.0,0.0,4.0,CA,1628174773.0
kangaatsiaq,68.3065,-53.4641,45.32,88.0,100.0,21.63,GL,1628174773.0
caravelas,-17.7125,-39.2481,71.28,80.0,100.0,9.6,BR,1628174774.0
sibu,2.3,111.8167,79.11,94.0,20.0,0.0,MY,1628174774.0
teguise,29.0605,-13.564,77.22,57.0,20.0,19.57,ES,1628174775.0
raudeberg,61.9875,5.1352,71.2,85.0,83.0,19.22,NO,1628174775.0
ust-tsilma,65.441,52.1498,57.97,59.0,100.0,6.53,RU,1628174776.0
honiara,-9.4333,159.95,75.43,83.0,72.0,4.21,SB,1628174777.0
kizema,61.113,44.8302,63.23,50.0,63.0,5.14,RU,1628174777.0
dinghai,26.2847,119.7936,77.92,93.0,100.0,21.05,CN,1628174777.0
fershampenuaz,53.5202,59.8117,69.58,69.0,70.0,5.57,RU,1628174778.0
san jeronimo,-11.9472,-75.2829,52.47,44.0,4.0,2.1,PE,1628174778.0
adre,13.4667,22.2,86.83,51.0,65.0,8.95,TD,1628174778.0
luanda,-8.8368,13.2343,77.0,69.0,40.0,9.22,AO,1628174515.0
portland,45.5234,-122.6762,68.45,83.0,75.0,1.01,US,1628174371.0
rodrigues alves,-7.738,-72.6509,80.8,33.0,7.0,3.27,BR,1628174779.0
ogaminana,7.5946,6.2248,74.32,92.0,100.0,7.63,NG,1628174780.0
aykhal,66.0,111.5,61.88,48.0,0.0,7.76,RU,1628174780.0
novorzhev,57.0294,29.3338,53.01,99.0,100.0,7.11,RU,1628174781.0
port macquarie,-31.4333,152.9167,53.56,72.0,4.0,10.54,AU,1628174781.0
noyabrsk,63.1994,75.4507,69.1,61.0,57.0,5.35,RU,1628174782.0
misratah,32.3754,15.0925,96.84,39.0,0.0,15.28,LY,1628174526.0
kirensk,57.7853,108.1119,58.96,84.0,88.0,1.16,RU,1628174782.0
nuuk,64.1835,-51.7216,48.81,81.0,90.0,35.68,GL,1628174783.0
sinnamary,5.3833,-52.95,78.75,85.0,100.0,4.88,GF,1628174783.0
broken hill,-31.95,141.4333,47.91,81.0,90.0,0.0,AU,1628174783.0
mandurah,-32.55,115.7,52.16,74.0,0.0,8.23,AU,1628174756.0
santa isabel do rio negro,-0.4139,-65.0192,84.25,61.0,76.0,3.44,BR,1628174784.0
maneadero,31.7167,-116.5667,75.16,64.0,4.0,5.17,MX,1628174785.0
zafra,38.4167,-6.4167,94.87,13.0,4.0,10.29,ES,1628174785.0
alekseyevka,50.6309,38.6903,83.08,36.0,100.0,6.62,RU,1628174786.0
torbay,47.6666,-52.7314,74.75,48.0,75.0,19.57,CA,1628174786.0
nemuro,43.3236,145.575,68.52,96.0,98.0,1.66,JP,1628174786.0
tigre,-34.426,-58.5796,53.74,95.0,90.0,9.22,AR,1628174787.0
rawson,-43.3002,-65.1023,69.08,27.0,21.0,23.33,AR,1628174662.0
avera,33.194,-82.5271,79.93,57.0,5.0,8.7,US,1628174787.0
tiznit,29.5833,-9.5,85.73,40.0,0.0,11.14,MA,1628174788.0
shache,38.4167,77.2406,80.98,28.0,100.0,5.57,CN,1628174788.0
sydney,-33.8679,151.2073,53.28,68.0,0.0,5.01,AU,1628174700.0
bayji,34.9311,43.487,113.2,10.0,11.0,10.27,IQ,1628174789.0
nouadhibou,20.931,-17.0347,76.98,69.0,0.0,17.27,MR,1628174789.0
mecca,21.4267,39.8261,101.68,23.0,56.0,16.42,SA,1628174790.0
margate,51.3813,1.3862,72.75,58.0,52.0,13.78,GB,1628174790.0
watsa,3.0372,29.5355,78.53,66.0,45.0,4.32,CD,1628174790.0
camaguey,21.3808,-77.9169,82.74,69.0,20.0,3.44,CU,1628174791.0
serdobsk,52.4586,44.2169,76.69,46.0,100.0,3.44,RU,1628174791.0
sao jose da coroa grande,-8.8978,-35.1478,76.12,83.0,79.0,13.96,BR,1628174792.0
te anau,-45.4167,167.7167,36.46,97.0,76.0,1.54,NZ,1628174792.0
balykshi,47.0667,51.8667,100.4,20.0,40.0,17.9,KZ,1628174793.0
fairbanks,64.8378,-147.7164,64.24,74.0,1.0,8.05,US,1628174793.0
hobyo,5.3505,48.5268,78.03,79.0,100.0,26.8,SO,1628174793.0
ballina,-28.8667,153.5667,48.78,93.0,2.0,0.0,AU,1628174794.0
moranbah,-22.0016,148.0466,50.68,45.0,27.0,8.59,AU,1628174794.0
klaksvik,62.2266,-6.589,56.32,95.0,87.0,7.34,FO,1628174795.0
marsa matruh,31.3525,27.2453,89.8,58.0,0.0,14.97,EG,1628174796.0
kirakira,-10.4544,161.9205,73.13,79.0,7.0,6.58,SB,1628174797.0
amahai,-3.3333,128.9167,77.67,88.0,79.0,7.47,ID,1628174797.0
rio gallegos,-51.6226,-69.2181,57.25,19.0,0.0,36.82,AR,1628174797.0
asau,46.4333,26.4,87.4,45.0,10.0,10.11,RO,1628174798.0
wenatchee,47.4235,-120.3103,73.8,52.0,1.0,5.75,US,1628174570.0
eenhana,-17.4667,16.3333,87.55,11.0,13.0,2.59,NA,1628174799.0
coihaique,-45.5752,-72.0662,55.35,54.0,90.0,13.8,CL,1628174799.0
lobito,-12.3481,13.5456,75.22,74.0,26.0,5.59,AO,1628174638.0
sanandaj,35.3144,46.9923,87.35,20.0,84.0,5.86,IR,1628174800.0
bahir dar,11.5936,37.3908,64.81,84.0,100.0,2.91,ET,1628174800.0
ndele,8.4109,20.6473,82.69,79.0,29.0,3.04,CF,1628174800.0
baturaja,-4.1333,104.1667,73.76,96.0,100.0,2.44,ID,1628174801.0
martapura,-3.4167,114.85,75.29,100.0,75.0,3.44,ID,1628174801.0
cabinda,-5.55,12.2,80.74,65.0,20.0,9.22,AO,1628174802.0
maceio,-9.6658,-35.7353,72.84,100.0,90.0,9.22,BR,1628174648.0
point fortin,10.1833,-61.6833,88.14,74.0,6.0,2.46,TT,1628174802.0
tagusao,9.1924,117.8141,81.5,78.0,16.0,7.61,PH,1628174803.0
severo-kurilsk,50.6789,156.125,51.98,82.0,12.0,13.87,RU,1628174803.0
vorobyevka,50.6451,40.9245,82.22,31.0,100.0,2.62,RU,1628174803.0
gore,-46.1028,168.9436,33.22,97.0,88.0,1.36,NZ,1628174804.0
mount isa,-20.7333,139.5,55.17,30.0,93.0,6.91,AU,1628174804.0
storforshei,66.4043,14.5233,67.78,49.0,40.0,8.05,NO,1628174805.0
oksbol,55.6268,8.2876,69.82,69.0,48.0,13.87,DK,1628174806.0
acobamba,-11.3525,-75.6594,56.41,41.0,1.0,6.46,PE,1628174806.0
namatanai,-3.6667,152.4333,78.75,85.0,66.0,6.02,PG,1628174807.0
inta,66.0317,60.1659,59.85,97.0,100.0,16.91,RU,1628174807.0
posse,-14.0931,-46.3694,80.33,27.0,9.0,9.84,BR,1628174807.0
edd,13.9297,41.6925,92.32,59.0,98.0,7.72,ER,1628174808.0
adrar,20.5022,-10.0711,109.51,9.0,0.0,18.63,MR,1628174808.0
okhotsk,59.3833,143.3,50.9,91.0,1.0,3.29,RU,1628174809.0
college,64.8569,-147.8028,64.22,73.0,20.0,3.44,US,1628174809.0
qaqortoq,60.7167,-46.0333,55.9,80.0,100.0,6.31,GL,1628174810.0
praia,14.9215,-23.5087,86.54,70.0,75.0,9.22,CV,1628174810.0
gouyave,12.1646,-61.7296,84.97,70.0,20.0,0.0,GD,1628174810.0
biak,-0.9131,122.8766,76.15,86.0,100.0,8.41,ID,1628174811.0
chekhov,55.1431,37.4711,67.26,89.0,100.0,5.7,RU,1628174811.0
skvyra,49.7318,29.6657,80.82,57.0,72.0,5.61,UA,1628174812.0
dunedin,-45.8742,170.5036,48.79,87.0,78.0,2.95,NZ,1628174812.0
bontang,0.1333,117.5,78.3,88.0,68.0,8.03,ID,1628174813.0
sindor,62.8629,51.8905,63.16,50.0,57.0,10.49,RU,1628174813.0
staryy nadym,65.6118,72.6842,72.16,57.0,97.0,4.38,RU,1628174814.0
san juan,-31.5375,-68.5364,67.53,26.0,0.0,3.67,AR,1628174814.0
labytnangi,66.6572,66.4183,72.43,59.0,98.0,7.81,RU,1628174815.0
tieli,46.95,128.05,65.89,98.0,100.0,5.88,CN,1628174815.0
sorland,67.667,12.6934,55.26,88.0,75.0,20.71,NO,1628174816.0
riyadh,24.6877,46.7219,109.54,7.0,47.0,9.22,SA,1628174517.0
tari,12.4086,4.4914,87.17,56.0,100.0,12.08,NG,1628174816.0
ippy,6.2679,21.2247,81.19,81.0,47.0,2.73,CF,1628174817.0
bandarbeyla,9.4942,50.8122,77.49,82.0,12.0,33.33,SO,1628174817.0
dong hoi,17.4833,106.6,84.63,73.0,100.0,9.31,VN,1628174818.0
celestun,20.8667,-90.4,83.64,68.0,2.0,5.08,MX,1628174818.0
mahibadhoo,3.7833,72.9667,82.47,76.0,92.0,7.56,MV,1628174818.0
vangaindrano,-23.35,47.6,65.75,82.0,45.0,6.49,MG,1628174819.0
ust-omchug,61.15,149.6333,33.78,97.0,99.0,8.68,RU,1628174819.0
guaymas,27.9333,-110.9,85.75,84.0,20.0,0.0,MX,1628174819.0
garissa,-0.4536,39.6401,87.49,36.0,43.0,20.98,KE,1628174820.0
maniitsoq,65.4167,-52.9,45.18,96.0,100.0,31.99,GL,1628174820.0
puksoozero,62.5903,40.6066,61.63,57.0,100.0,3.15,RU,1628174820.0
tieling,42.2931,123.8414,70.59,93.0,100.0,6.44,CN,1628174821.0
beloha,-25.1667,45.05,71.74,50.0,0.0,9.62,MG,1628174822.0
camacupa,-12.0167,17.4833,82.76,13.0,0.0,3.0,AO,1628174822.0
umm kaddadah,13.6017,26.6876,95.85,29.0,18.0,7.18,SD,1628174822.0
luganville,-15.5333,167.1667,74.32,82.0,65.0,3.04,VU,1628174823.0
buala,-8.145,159.5921,77.77,81.0,81.0,4.85,SB,1628174823.0
san luis,-33.295,-66.3356,69.58,22.0,0.0,16.17,AR,1628174568.0
tabas,33.5959,56.9244,97.79,11.0,4.0,14.25,IR,1628174824.0
zeya,53.75,127.2667,58.59,99.0,100.0,4.14,RU,1628174825.0
zyryanka,65.75,150.85,41.99,90.0,100.0,12.48,RU,1628174826.0
loa janan,-0.583,117.095,75.2,96.0,75.0,3.02,ID,1628174826.0
swan river,52.1058,-101.2676,58.89,94.0,45.0,4.61,CA,1628174827.0
bonthe,7.5264,-12.505,75.15,92.0,100.0,9.46,SL,1628174827.0
santa marta,11.2408,-74.199,85.53,67.0,32.0,8.68,CO,1628174628.0
general roca,-39.0333,-67.5833,48.6,26.0,33.0,8.37,AR,1628174828.0
axim,4.8699,-2.2405,80.46,72.0,56.0,12.26,GH,1628174828.0
san quintin,30.4833,-115.95,69.17,83.0,21.0,7.49,MX,1628174829.0
qui nhon,13.7667,109.2333,85.75,67.0,100.0,12.8,VN,1628174830.0
ocos,14.5094,-92.1933,88.68,77.0,88.0,2.08,GT,1628174830.0
kirksville,40.1948,-92.5833,66.38,82.0,90.0,12.66,US,1628174764.0
ligayan,4.6533,119.4706,85.19,71.0,34.0,10.87,PH,1628174831.0
watford,51.6553,-0.396,69.66,82.0,75.0,1.99,GB,1628174832.0
chamba,32.5667,76.1333,75.33,88.0,31.0,3.87,IN,1628174832.0
giyani,-23.3025,30.7187,79.16,24.0,0.0,4.9,ZA,1628174833.0
lebanon,36.2081,-86.2911,82.45,65.0,1.0,0.0,US,1628174833.0
san joaquin,37.9333,-121.3011,64.0,84.0,1.0,0.0,US,1628174834.0
litovko,49.2361,135.1742,61.43,96.0,98.0,4.54,RU,1628174834.0
kabansk,52.0486,106.6528,63.09,67.0,73.0,2.06,RU,1628174835.0
nanortalik,60.1432,-45.2371,47.19,85.0,84.0,8.68,GL,1628174836.0
along,28.1667,94.7667,78.04,95.0,52.0,1.63,IN,1628174836.0
vardo,70.3705,31.1107,57.4,83.0,72.0,3.65,NO,1628174837.0
tomakomai,42.6369,141.6033,79.14,94.0,40.0,1.14,JP,1628174837.0
oyama,36.3,139.8,86.59,67.0,87.0,2.62,JP,1628174838.0
kaitangata,-46.2817,169.8464,38.79,95.0,83.0,3.8,NZ,1628174839.0
tarko-sale,64.9225,77.785,71.6,58.0,41.0,6.55,RU,1628174839.0
tukrah,32.5341,20.5791,91.72,42.0,0.0,10.89,LY,1628174840.0
alice springs,-23.7,133.8833,44.15,61.0,24.0,5.75,AU,1628174609.0
paoua,7.2427,16.4406,84.96,55.0,21.0,1.95,CF,1628174841.0
ola,59.5833,151.2833,46.24,63.0,97.0,12.73,RU,1628174841.0
carutapera,-1.195,-46.02,88.47,53.0,53.0,6.64,BR,1628174842.0
yanam,16.7333,82.2167,90.0,69.0,99.0,3.62,IN,1628174842.0
nea kerasia,40.4757,22.8689,102.88,40.0,0.0,8.05,GR,1628174843.0
kaura namoda,12.5898,6.5779,86.63,55.0,100.0,6.06,NG,1628174843.0
vilyuysk,63.7553,121.6247,60.42,39.0,7.0,6.15,RU,1628174844.0
fukue,32.6881,128.8419,82.02,84.0,3.0,2.59,JP,1628174844.0
pajapan,18.25,-94.7,81.84,73.0,100.0,3.94,MX,1628174845.0
srandakan,-7.9386,110.2506,76.15,90.0,26.0,7.74,ID,1628174845.0
orlik,52.5178,99.825,57.38,86.0,100.0,3.36,RU,1628174846.0
progreso,21.2833,-89.6667,85.1,66.0,3.0,5.59,MX,1628174846.0
rovaniemi,66.5,25.7167,67.41,42.0,0.0,12.66,FI,1628174847.0
manbij,36.5281,37.9549,106.57,11.0,4.0,14.47,SY,1628174848.0
suez,29.9737,32.5263,103.15,16.0,0.0,7.87,EG,1628174848.0
maralal,1.0968,36.698,66.9,59.0,90.0,5.5,KE,1628174849.0
whitianga,-36.8333,175.7,55.02,91.0,96.0,7.99,NZ,1628174850.0
nizwa,22.9333,57.5333,103.98,10.0,38.0,10.63,OM,1628174850.0
irbeyskoye,55.6428,95.4522,62.56,88.0,28.0,2.13,RU,1628174851.0
buluang,13.3068,123.3425,81.3,82.0,97.0,10.25,PH,1628174851.0
phibun mangsahan,15.2447,105.2291,82.38,92.0,100.0,10.51,TH,1628174852.0
bubaque,11.2833,-15.8333,79.65,80.0,100.0,5.7,GW,1628174853.0
pasighat,28.0667,95.3333,80.19,90.0,23.0,4.43,IN,1628174853.0
hengshui,37.7322,115.7011,75.67,73.0,0.0,4.56,CN,1628174854.0
turan,16.0678,108.2208,91.45,55.0,20.0,6.91,VN,1628174854.0
dawei,14.0833,98.2,77.49,93.0,100.0,6.53,MM,1628174855.0
kurchum,48.5722,83.6542,66.87,51.0,14.0,8.03,KZ,1628174856.0
makakilo city,21.3469,-158.0858,77.32,74.0,40.0,5.75,US,1628174856.0
nogliki,51.8333,143.1667,52.25,95.0,100.0,16.58,RU,1628174857.0
mattru,7.6244,-11.8332,75.15,94.0,100.0,6.2,SL,1628174857.0
lincoln,40.8,-96.667,76.12,76.0,1.0,1.99,US,1628174719.0
kupang,-10.1667,123.5833,77.22,78.0,80.0,14.74,ID,1628174859.0
thinadhoo,0.5333,72.9333,82.49,71.0,53.0,3.27,MV,1628174859.0
sistranda,63.7256,8.834,69.76,68.0,91.0,9.93,NO,1628174860.0
bainbridge,47.6262,-122.5212,68.47,80.0,75.0,0.0,US,1628174622.0
mahina,-17.5065,-149.489,74.97,78.0,20.0,5.75,PF,1628174861.0
tshikapa,-6.4167,20.8,99.19,13.0,0.0,3.36,CD,1628174861.0
comodoro rivadavia,-45.8667,-67.5,69.66,18.0,0.0,18.41,AR,1628174614.0
